[{"name": "Agartala", "today_value": 42.0, "state": "Tripura", "lat": 23.8175497, "lon": 91.2726974}, {"name": "Agra", "today_value": 89.67, "state": "Uttar Pradesh", "lat": 27.184136388333332, "lon": 77.99071692666666}, {"name": "Ahmedabad", "today_value": 64.0, "state": "Gujarat", "lat": 23.03330275, "lon": 72.56554825}, {"name": "Ahmednagar", "today_value": 18.0, "state": "Maharashtra", "lat": 19.10122, "lon": 74.73339}, {"name": "Ajmer", "today_value": 92.0, "state": "Rajasthan", "lat": 26.470859, "lon": 74.646594}, {"name": "Amaravati", "today_value": 48.0, "state": "Andhra Pradesh", "lat": 16.5150833, "lon": 80.5181667}, {"name": "Amravati", "today_value": 33.0, "state": "Maharashtra", "lat": 20.93971695, "lon": 77.77761290000001}, {"name": "Amritsar", "today_value": 95.0, "state": "Punjab", "lat": 31.62, "lon": 74.876512}, {"name": "Anantapur", "today_value": 79.0, "state": "Andhra Pradesh", "lat": 14.675886, "lon": 77.593027}, {"name": "Angul", "today_value": 81.0, "state": "Odisha", "lat": 20.832874, "lon": 85.104082}, {"name": "Asansol", "today_value": 41.5, "state": "West Bengal", "lat": 23.65448275, "lon": 87.0288035}, {"name": "Aurangabad", "today_value": 62.5, "state": "Bihar", "lat": 24.75746, "lon": 84.366208}, {"name": "Baghpat", "today_value": 76.0, "state": "Uttar Pradesh", "lat": 28.964949, "lon": 77.278761}, {"name": "Bahadurgarh", "today_value": 78.0, "state": "Haryana", "lat": 28.6701, "lon": 76.9254}, {"name": "Balasore", "today_value": 38.0, "state": "Odisha", "lat": 21.51161, "lon": 86.89088}, {"name": "Ballabgarh", "today_value": 156.0, "state": "Haryana", "lat": 28.3419248, "lon": 77.319699}, {"name": "Banswara", "today_value": 74.0, "state": "Rajasthan", "lat": 23.55519, "lon": 74.44001}, {"name": "Bareilly", "today_value": 40.5, "state": "Uttar Pradesh", "lat": 28.37434518, "lon": 79.42204604}, {"name": "Barmer", "today_value": 102.0, "state": "Rajasthan", "lat": 25.747299, "lon": 71.393989}, {"name": "Bathinda", "today_value": 60.0, "state": "Punjab", "lat": 30.233011, "lon": 74.907758}, {"name": "Beed", "today_value": 41.0, "state": "Maharashtra", "lat": 18.988474, "lon": 75.753873}, {"name": "Begusarai", "today_value": 68.0, "state": "Bihar", "lat": 25.42742023, "lon": 86.13886079}, {"name": "Belapur", "today_value": 19.0, "state": "Maharashtra", "lat": 19.0243902, "lon": 73.0406721}, {"name": "Belgaum", "today_value": 28.0, "state": "Karnataka", "lat": 15.888653, "lon": 74.541751}, {"name": "Bengaluru", "today_value": 55.5, "state": "Karnataka", "lat": 12.952231928571427, "lon": 77.5791394}, {"name": "Bhagalpur", "today_value": 60.0, "state": "Bihar", "lat": 25.2581035, "lon": 87.000974}, {"name": "Bharatpur", "today_value": 57.0, "state": "Rajasthan", "lat": 27.215415, "lon": 77.50873}, {"name": "Bhavnagar", "today_value": 63.0, "state": "Gujarat", "lat": 21.755417, "lon": 72.139056}, {"name": "Bhilai", "today_value": 22.0, "state": "Chhattisgarh", "lat": 21.201539, "lon": 81.35543166666666}, {"name": "Bhilwara", "today_value": 76.0, "state": "Rajasthan", "lat": 25.339605, "lon": 74.618883}, {"name": "Bhiwadi", "today_value": 129.5, "state": "Rajasthan", "lat": 28.2010875, "lon": 76.8457805}, {"name": "Bhiwani", "today_value": 91.0, "state": "Haryana", "lat": 28.806223, "lon": 76.141105}, {"name": "Bhopal", "today_value": 38.33, "state": "Madhya Pradesh", "lat": 23.236279, "lon": 77.402517}, {"name": "Bhubaneswar", "today_value": 40.0, "state": "Odisha", "lat": 20.293655, "lon": 85.82654199999999}, {"name": "Bikaner", "today_value": 116.0, "state": "Rajasthan", "lat": 28.018792, "lon": 73.292658}, {"name": "Bilaspur", "today_value": 33.0, "state": "Chhattisgarh", "lat": 22.08815, "lon": 82.13737}, {"name": "Boisar", "today_value": 29.0, "state": "Maharashtra", "lat": 19.786089, "lon": 72.757971}, {"name": "Brajrajnagar", "today_value": 32.0, "state": "Odisha", "lat": 21.8004996, "lon": 83.8396977}, {"name": "Buxar", "today_value": 107.0, "state": "Bihar", "lat": 25.56752, "lon": 83.966379}, {"name": "Byrnihat", "today_value": 86.6, "state": "Assam", "lat": 26.071318, "lon": 91.87488}, {"name": "Chandrapur", "today_value": 25.0, "state": "Maharashtra", "lat": 19.9702151, "lon": 79.26621130000001}, {"name": "Chennai", "today_value": 51.86, "state": "Tamil Nadu", "lat": 13.08386612857143, "lon": 80.25186607142857}, {"name": "Chhal", "today_value": 36.0, "state": "Chhattisgarh", "lat": 22.118125, "lon": 83.140608}, {"name": "Chhapra", "today_value": 114.0, "state": "Bihar", "lat": 25.7808257, "lon": 84.7446768}, {"name": "Chikkamagaluru", "today_value": 32.0, "state": "Karnataka", "lat": 13.328028, "lon": 75.797056}, {"name": "Chittoor", "today_value": 56.0, "state": "Andhra Pradesh", "lat": 13.20488, "lon": 79.097889}, {"name": "Chittorgarh", "today_value": 54.0, "state": "Rajasthan", "lat": 24.892047, "lon": 74.623527}, {"name": "Coimbatore", "today_value": 26.5, "state": "Tamil Nadu", "lat": 10.9876255, "lon": 77.006948}, {"name": "Cuddalore", "today_value": 51.0, "state": "Tamil Nadu", "lat": 11.7637683, "lon": 79.7499835}, {"name": "Cuttack", "today_value": 85.0, "state": "Odisha", "lat": 20.48891, "lon": 85.84768}, {"name": "Dehradun", "today_value": 19.0, "state": "Uttarakhand", "lat": 30.269444, "lon": 78.044167}, {"name": "Delhi", "today_value": 102.66, "state": "Delhi", "lat": 28.62375059074074, "lon": 77.17556268333334}, {"name": "Dhanbad", "today_value": 197.0, "state": "Jharkhand", "lat": 23.80569, "lon": 86.44268}, {"name": "Dharwad", "today_value": 73.0, "state": "Karnataka", "lat": 15.459706, "lon": 75.008381}, {"name": "Dombivli", "today_value": 6.0, "state": "Maharashtra", "lat": 19.2268427, "lon": 73.0788456}, {"name": "Dungarpur", "today_value": 50.0, "state": "Rajasthan", "lat": 23.837789, "lon": 73.714926}, {"name": "Durgapur", "today_value": 47.67, "state": "West Bengal", "lat": 23.542027333333333, "lon": 87.32059299999999}, {"name": "Eloor", "today_value": 73.0, "state": "Kerala", "lat": 10.073232, "lon": 76.302765}, {"name": "Faridabad", "today_value": 113.0, "state": "Haryana", "lat": 28.402826, "lon": 77.31267700000001}, {"name": "Fatehabad", "today_value": 135.0, "state": "Haryana", "lat": 29.503664, "lon": 75.467934}, {"name": "Fatehpur Sikri", "today_value": 85.0, "state": "Uttar Pradesh", "lat": 27.097694, "lon": 77.671335}, {"name": "Firozabad", "today_value": 57.5, "state": "Uttar Pradesh", "lat": 27.164148500000003, "lon": 78.38613000000001}, {"name": "Gadag", "today_value": 25.0, "state": "Karnataka", "lat": 15.411456, "lon": 75.638133}, {"name": "Gandhinagar", "today_value": 68.33, "state": "Gujarat", "lat": 23.209717, "lon": 72.674012}, {"name": "Gangtok", "today_value": 29.0, "state": "Sikkim", "lat": 27.33853, "lon": 88.614099}, {"name": "Gaya", "today_value": 67.5, "state": "Bihar", "lat": 24.783473666666666, "lon": 84.991388}, {"name": "Ghaziabad", "today_value": 147.87, "state": "Uttar Pradesh", "lat": 28.69767932, "lon": 77.34432606}, {"name": "Greater Noida", "today_value": 178.5, "state": "Uttar Pradesh", "lat": 28.514887, "lon": 77.4678315}, {"name": "Gummidipoondi", "today_value": 81.0, "state": "Tamil Nadu", "lat": 13.4127, "lon": 80.1081}, {"name": "Gurugram", "today_value": 125.0, "state": "Haryana", "lat": 28.42913716, "lon": 77.10747862000001}, {"name": "Guwahati", "today_value": 58.75, "state": "Assam", "lat": 26.1702439, "lon": 91.70370808999999}, {"name": "Gwalior", "today_value": 54.33, "state": "Madhya Pradesh", "lat": 26.221024, "lon": 78.18579899999999}, {"name": "Haldia", "today_value": 27.0, "state": "West Bengal", "lat": 22.06047, "lon": 88.109737}, {"name": "Hanumangarh", "today_value": 90.0, "state": "Rajasthan", "lat": 29.61075, "lon": 74.283608}, {"name": "Hisar", "today_value": 93.0, "state": "Haryana", "lat": 29.14056, "lon": 75.744941}, {"name": "Howrah", "today_value": 49.6, "state": "West Bengal", "lat": 22.5936024, "lon": 88.31646020000001}, {"name": "Hubballi", "today_value": 45.0, "state": "Karnataka", "lat": 15.361627649999999, "lon": 75.12837139999999}, {"name": "Hyderabad", "today_value": 49.25, "state": "Telangana", "lat": 17.46596325384615, "lon": 78.38905047692307}, {"name": "Indore", "today_value": 24.0, "state": "Madhya Pradesh", "lat": 22.65974, "lon": 75.7907}, {"name": "Jabalpur", "today_value": 34.5, "state": "Madhya Pradesh", "lat": 23.17320075, "lon": 79.94480625}, {"name": "Jaipur", "today_value": 80.33, "state": "Rajasthan", "lat": 26.89344335, "lon": 75.78898835}, {"name": "Jaisalmer", "today_value": 105.0, "state": "Rajasthan", "lat": 26.912329, "lon": 70.909168}, {"name": "Jalandhar", "today_value": 38.0, "state": "Punjab", "lat": 31.321907, "lon": 75.578914}, {"name": "Jalore", "today_value": 82.0, "state": "Rajasthan", "lat": 25.344694, "lon": 72.626208}, {"name": "Jhalawar", "today_value": 49.0, "state": "Rajasthan", "lat": 24.588397, "lon": 76.172782}, {"name": "Jhansi", "today_value": 33.0, "state": "Uttar Pradesh", "lat": 25.4547, "lon": 78.6039}, {"name": "Jind", "today_value": 91.0, "state": "Haryana", "lat": 29.307814, "lon": 76.337619}, {"name": "Jodhpur", "today_value": 81.6, "state": "Rajasthan", "lat": 26.2783326, "lon": 73.03916785999999}, {"name": "Jorapokhar", "today_value": 94.0, "state": "Jharkhand", "lat": 23.707909, "lon": 86.41467}, {"name": "Kalyan", "today_value": 36.0, "state": "Maharashtra", "lat": 19.222488, "lon": 73.05026889999999}, {"name": "Kanpur", "today_value": 43.0, "state": "Uttar Pradesh", "lat": 26.469516533333334, "lon": 80.29988843333332}, {"name": "Kashipur", "today_value": 42.0, "state": "Uttarakhand", "lat": 29.2124114, "lon": 78.9611753}, {"name": "Katihar", "today_value": 10.0, "state": "Bihar", "lat": 25.560083, "lon": 87.553265}, {"name": "Khairthal", "today_value": 111.0, "state": "Rajasthan", "lat": 27.8015617, "lon": 76.6365217}, {"name": "Khanna", "today_value": 75.0, "state": "Punjab", "lat": 30.736056, "lon": 76.209694}, {"name": "Khora", "today_value": 104.0, "state": "Uttar Pradesh", "lat": 28.61119, "lon": 77.34206}, {"name": "Khurja", "today_value": 55.0, "state": "Uttar Pradesh", "lat": 28.2348927, "lon": 77.8683002}, {"name": "Kishanganj", "today_value": 70.0, "state": "Bihar", "lat": 26.0881305, "lon": 87.93840336}, {"name": "Kohima", "today_value": 10.0, "state": "Nagaland", "lat": 25.6635413, "lon": 94.0989878}, {"name": "Kolhapur", "today_value": 26.0, "state": "Maharashtra", "lat": 16.7007097, "lon": 74.2466135}, {"name": "Kolkata", "today_value": 40.14, "state": "West Bengal", "lat": 22.551138054285712, "lon": 88.36544698142858}, {"name": "Kollam", "today_value": 52.0, "state": "Kerala", "lat": 8.8787, "lon": 76.6073}, {"name": "Korba", "today_value": 35.0, "state": "Chhattisgarh", "lat": 22.358318, "lon": 82.648021}, {"name": "Kota", "today_value": 61.33, "state": "Rajasthan", "lat": 25.168001333333336, "lon": 75.84502033333332}, {"name": "Kunjemura", "today_value": 35.0, "state": "Chhattisgarh", "lat": 22.12665, "lon": 83.483212}, {"name": "Kurukshetra", "today_value": 85.0, "state": "Haryana", "lat": 29.966942, "lon": 76.875879}, {"name": "Lucknow", "today_value": 60.5, "state": "Uttar Pradesh", "lat": 26.85462862, "lon": 80.94912003333333}, {"name": "Machilipatnam", "today_value": 82.0, "state": "Andhra Pradesh", "lat": 16.186555, "lon": 81.13219}, {"name": "Madikeri", "today_value": 9.0, "state": "Karnataka", "lat": 12.415911, "lon": 75.73505}, {"name": "Madurai", "today_value": 39.0, "state": "Tamil Nadu", "lat": 9.865935, "lon": 78.022669}, {"name": "Mahad", "today_value": 48.0, "state": "Maharashtra", "lat": 18.1023399, "lon": 73.4783687}, {"name": "Malegaon", "today_value": 41.0, "state": "Maharashtra", "lat": 20.555712, "lon": 74.529236}, {"name": "Mandi Gobindgarh", "today_value": 109.0, "state": "Punjab", "lat": 30.649961, "lon": 76.331442}, {"name": "Mandideep", "today_value": 36.0, "state": "Madhya Pradesh", "lat": 23.10844, "lon": 77.511428}, {"name": "Manesar", "today_value": 118.0, "state": "Haryana", "lat": 28.360699, "lon": 76.93609}, {"name": "Manguraha", "today_value": 106.0, "state": "Bihar", "lat": 27.308328, "lon": 84.531742}, {"name": "Meerut", "today_value": 82.75, "state": "Uttar Pradesh", "lat": 28.997259800000002, "lon": 77.718017625}, {"name": "Milupara", "today_value": 56.0, "state": "Chhattisgarh", "lat": 22.1910172, "lon": 83.5197009}, {"name": "Modinagar", "today_value": 58.0, "state": "Uttar Pradesh", "lat": 28.798171, "lon": 77.540243}, {"name": "Moradabad", "today_value": 45.67, "state": "Uttar Pradesh", "lat": 28.8449945, "lon": 78.74160983333333}, {"name": "Mumbai", "today_value": 31.38, "state": "Maharashtra", "lat": 19.09100297666667, "lon": 72.86171419}, {"name": "Munger", "today_value": 32.0, "state": "Bihar", "lat": 25.376776, "lon": 86.471523}, {"name": "Muzaffarnagar", "today_value": 78.0, "state": "Uttar Pradesh", "lat": 29.4723508, "lon": 77.7194031}, {"name": "Muzaffarpur", "today_value": 67.0, "state": "Bihar", "lat": 26.125218166666667, "lon": 85.37594973333334}, {"name": "Nagaon", "today_value": 57.0, "state": "Assam", "lat": 26.349082, "lon": 92.68449}, {"name": "Nagpur", "today_value": 31.5, "state": "Maharashtra", "lat": 21.14069475, "lon": 79.064445025}, {"name": "Naharlagun", "today_value": 36.0, "state": "Arunachal Pradesh", "lat": 27.103358, "lon": 93.679645}, {"name": "Nalbari", "today_value": 39.0, "state": "Assam", "lat": 26.446912, "lon": 91.439057}, {"name": "Nanded", "today_value": 13.0, "state": "Maharashtra", "lat": 19.173852, "lon": 77.296291}, {"name": "Narnaul", "today_value": 125.0, "state": "Haryana", "lat": 28.060249, "lon": 76.113115}, {"name": "Nashik", "today_value": 21.5, "state": "Maharashtra", "lat": 19.984546525, "lon": 73.775091875}, {"name": "Navi Mumbai", "today_value": 22.67, "state": "Maharashtra", "lat": 19.059826383333334, "lon": 73.04647278333333}, {"name": "Nayagarh", "today_value": 125.0, "state": "Odisha", "lat": 21.847279, "lon": 85.416905}, {"name": "Nellore", "today_value": 64.0, "state": "Andhra Pradesh", "lat": 14.438164, "lon": 79.966814}, {"name": "Noida", "today_value": 99.5, "state": "Uttar Pradesh", "lat": 28.582084675, "lon": 77.34619602500001}, {"name": "Pali", "today_value": 93.0, "state": "Rajasthan", "lat": 25.771061, "lon": 73.340227}, {"name": "Palwal", "today_value": 50.0, "state": "Haryana", "lat": 28.1485564, "lon": 77.3320667}, {"name": "Pampore", "today_value": 55.0, "state": "Jammu and Kashmir", "lat": 34.031606, "lon": 75.009712}, {"name": "Panchgaon", "today_value": 61.0, "state": "Haryana", "lat": 28.3153, "lon": 76.9143}, {"name": "Parbhani", "today_value": 31.0, "state": "Maharashtra", "lat": 19.265594, "lon": 76.761463}, {"name": "Patiala", "today_value": 65.0, "state": "Punjab", "lat": 30.349388, "lon": 76.366642}, {"name": "Patna", "today_value": 58.2, "state": "Bihar", "lat": 25.600889, "lon": 85.12499733333333}, {"name": "Perundurai", "today_value": 63.0, "state": "Tamil Nadu", "lat": 11.258242, "lon": 77.552761}, {"name": "Pimpri-Chinchwad", "today_value": 33.8, "state": "Maharashtra", "lat": 18.6278531, "lon": 73.7895439}, {"name": "Pithampur", "today_value": 29.0, "state": "Madhya Pradesh", "lat": 22.624758, "lon": 75.675238}, {"name": "Pratapgarh", "today_value": 78.0, "state": "Rajasthan", "lat": 24.041198, "lon": 74.780702}, {"name": "Puducherry", "today_value": 34.0, "state": "Puducherry", "lat": 11.9309, "lon": 79.8027}, {"name": "Pune", "today_value": 34.2, "state": "Maharashtra", "lat": 18.5512867, "lon": 73.8406453}, {"name": "Purnia", "today_value": 45.0, "state": "Bihar", "lat": 25.366336, "lon": 87.117468}, {"name": "Raebareli", "today_value": 72.0, "state": "Uttar Pradesh", "lat": 26.207781, "lon": 81.245571}, {"name": "Raipur", "today_value": 33.5, "state": "Chhattisgarh", "lat": 21.2719965, "lon": 81.64482575}, {"name": "Rajgir", "today_value": 64.0, "state": "Bihar", "lat": 25.0328, "lon": 85.41948}, {"name": "Rajkot", "today_value": 53.0, "state": "Gujarat", "lat": 22.248853, "lon": 70.776774}, {"name": "Rajsamand", "today_value": 67.0, "state": "Rajasthan", "lat": 25.03636, "lon": 73.883502}, {"name": "Rishikesh", "today_value": 27.0, "state": "Uttarakhand", "lat": 30.075911, "lon": 78.2859547}, {"name": "Rourkela", "today_value": 68.67, "state": "Odisha", "lat": 22.218518406666664, "lon": 84.85111096333334}, {"name": "Rupnagar", "today_value": 63.0, "state": "Punjab", "lat": 31.0325454, "lon": 76.5623046}, {"name": "Sagar", "today_value": 51.5, "state": "Madhya Pradesh", "lat": 23.8513009, "lon": 78.78116210499999}, {"name": "Sangli", "today_value": 61.0, "state": "Maharashtra", "lat": 16.5038, "lon": 74.3623}, {"name": "Sasaram", "today_value": 50.0, "state": "Bihar", "lat": 24.952822, "lon": 84.002396}, {"name": "Satara", "today_value": 26.5, "state": "Maharashtra", "lat": 17.696651, "lon": 74.003387}, {"name": "Sawai Madhopur", "today_value": 83.0, "state": "Rajasthan", "lat": 26.031443, "lon": 76.359327}, {"name": "Shillong", "today_value": 19.0, "state": "Meghalaya", "lat": 25.56947095, "lon": 91.89637855000001}, {"name": "Singrauli", "today_value": 61.0, "state": "Madhya Pradesh", "lat": 24.10897, "lon": 82.64558}, {"name": "Sirsa", "today_value": 122.0, "state": "Haryana", "lat": 29.5364, "lon": 75.0158}, {"name": "Sivasagar", "today_value": 27.0, "state": "Assam", "lat": 26.987634, "lon": 94.636574}, {"name": "Solapur", "today_value": 42.5, "state": "Maharashtra", "lat": 17.644008200000002, "lon": 75.90986975000001}, {"name": "Sonipat", "today_value": 44.0, "state": "Haryana", "lat": 29.0272, "lon": 77.0621}, {"name": "Sri Ganganagar", "today_value": 97.0, "state": "Rajasthan", "lat": 29.931624, "lon": 73.864511}, {"name": "Srinagar", "today_value": 59.5, "state": "Jammu and Kashmir", "lat": 34.064668, "lon": 74.889995}, {"name": "Surat", "today_value": 49.5, "state": "Gujarat", "lat": 21.1939125, "lon": 72.81509600000001}, {"name": "Talcher", "today_value": 70.0, "state": "Odisha", "lat": 20.9360711, "lon": 85.1707021}, {"name": "Tensa", "today_value": 38.0, "state": "Odisha", "lat": 21.869985, "lon": 85.167016}, {"name": "Thane", "today_value": 30.0, "state": "Maharashtra", "lat": 19.2450245, "lon": 72.9648995}, {"name": "Thoothukudi", "today_value": 52.0, "state": "Tamil Nadu", "lat": 8.816428, "lon": 78.099039}, {"name": "Thrissur", "today_value": 51.0, "state": "Kerala", "lat": 10.5324, "lon": 76.2159}, {"name": "Tirumala", "today_value": 18.0, "state": "Andhra Pradesh", "lat": 13.67, "lon": 79.35}, {"name": "Tumakuru", "today_value": 65.0, "state": "Karnataka", "lat": 13.377516, "lon": 77.099072}, {"name": "Udupi", "today_value": 98.0, "state": "Karnataka", "lat": 13.34194444, "lon": 74.74694444}, {"name": "Ulhasnagar", "today_value": 28.0, "state": "Maharashtra", "lat": 19.23316905, "lon": 73.1571565}, {"name": "Vadodara", "today_value": 43.0, "state": "Gujarat", "lat": 22.320153, "lon": 73.216285}, {"name": "Vapi", "today_value": 79.0, "state": "Gujarat", "lat": 20.362421, "lon": 72.918013}, {"name": "Varanasi", "today_value": 39.75, "state": "Uttar Pradesh", "lat": 25.30965815, "lon": 82.9743436}, {"name": "Vatva", "today_value": 112.0, "state": "Gujarat", "lat": 22.969611, "lon": 72.6435}, {"name": "Vijayapura", "today_value": 39.0, "state": "Karnataka", "lat": 16.802639, "lon": 75.722694}, {"name": "Virar", "today_value": 34.0, "state": "Maharashtra", "lat": 19.445821, "lon": 72.7988231}, {"name": "Visakhapatnam", "today_value": 59.0, "state": "Andhra Pradesh", "lat": 17.72, "lon": 83.3}]